{"24e124fffef658ae":{"network":"ttn","id":"24e124fffef658ae","name":"GW_Kontor","location":{"latitude":59.8462688312813,"longitude":17.670704126358,"altitude":0},"country_code":"se","attributes":{"brand":"Ursalink","frequency_plan":"EU_863_870_TTN"},"online":true,"last_seen":"2025-01-12T15:01:47.297242Z"},"5031395378604750":{"network":"ttn","id":"5031395378604750","name":"vtklora1","location":{"latitude":59.5480241284322,"longitude":18.0534062131918,"altitude":30},"country_code":"se","attributes":{"frequency_plan":"EU_863_870_TTN"},"online":true,"last_seen":"2025-01-12T15:04:11.185596Z"},"a84041ffff21b068":{"network":"ttn","id":"a84041ffff21b068","location":{"latitude":60.11022170741412,"longitude":13.563072681427004,"altitude":135},"country_code":"se","attributes":{"brand":"Dragino","frequency_plan":"EU_863_870_TTN"},"online":true,"last_seen":"2025-01-12T14:57:15.135914Z"},"bruka-lora":{"network":"ttn","id":"bruka-lora","name":"bruka-lora01","description":"TheThings Gateway","location":{"latitude":61.71015071020431,"longitude":16.63781118353654,"altitude":110},"country_code":"se","attributes":{"frequency_plan":"EU_863_870_TTN"},"online":true,"last_seen":"2025-01-12T15:03:34.813226Z"},"buffalo-gateway2":{"network":"ttn","id":"buffalo-gateway2","name":"ABASTO RAK7256 GW","location":{"latitude":59.63893513584886,"longitude":17.761878251712606,"altitude":20},"country_code":"se","attributes":{"frequency_plan":"EU_863_870_TTN"},"online":true,"last_seen":"2025-01-12T14:58:27.425371Z"},"campus-borlange-gateway":{"network":"ttn","id":"campus-borlange-gateway","name":"LoRaWAN Campus Borlänge","description":"LoRaWAN Campus Borlänge","location":{"latitude":60.48744,"longitude":15.40964,"altitude":147},"country_code":"se","attributes":{"brand":"Gemtek","frequency_plan":"EU_863_870_TTN"},"online":true,"last_seen":"2025-01-12T15:02:51.191873Z"},"creativeenabler05":{"network":"ttn","id":"creativeenabler05","name":"creativeenabler05 - CAMATEC STHLM","description":"Camatec Stockholm","location":{"latitude":59.44490329272389,"longitude":18.12126159667969,"altitude":20},"attributes":{"frequency_plan":"EU_863_870_TTN"},"online":true,"last_seen":"2025-01-12T15:01:47.138729Z"},"dc02-gw1":{"network":"ttn","id":"dc02-gw1","name":"Servercentralen GW1 - A \u003eone","location":{"latitude":59.353807218668415,"longitude":17.976169029716406,"altitude":0},"country_code":"se","attributes":{"frequency_plan":"EU_863_870"},"online":true,"last_seen":"2025-01-12T15:03:07.182092Z"},"effar-wan-gw":{"network":"ttn","id":"effar-wan-gw","name":"effar-wan-gw","location":{"latitude":59.45276603766618,"longitude":17.980365157127384,"altitude":20},"country_code":"se","attributes":{"brand":"Dragino","frequency_plan":"EU_863_870_TTN"},"online":true,"last_seen":"2025-01-12T14:59:48.796983Z"},"enfo-ttn-demo":{"network":"ttn","id":"enfo-ttn-demo","name":"enfo-ttn-demo","description":"Enfo Västerås Demo Gateway","location":{"latitude":59.65592680545917,"longitude":16.54524922370911,"altitude":0},"country_code":"se","attributes":{"brand":"Laird","frequency_plan":"EU_863_870_TTN"},"online":true,"last_seen":"2025-01-12T15:03:07.404816Z"},"eui-240ac4fffe00d616":{"network":"ttn","id":"eui-240ac4fffe00d616","name":"prx-lorawan-gw1","description":"LoPy 1-channel, only channel 1 868.1Mhz, 1/4 swivel antenna","location":{"latitude":59.339241125821346,"longitude":18.047334551811222,"altitude":7},"attributes":{"brand":"ESP based","frequency_plan":"EU_863_870_TTN"},"online":false,"last_seen":"2025-01-09T13:02:31.258113Z"},"eui-24e124fffef7cc42":{"network":"ttn","id":"eui-24e124fffef7cc42","name":"SjöteknikAB_Storsjön1_UG56_community","description":"Commersiell gateway som används i dedikerat nätverk för diverse sensorer runt storsjön men även tillgänglig här för er att använda. placerad på 77möh med extern GP868 antenn. Ups/Wan/LTE. Kontakta Marcus på Sjöteknik i Gävle AB om ni har funderingar eller önskar få använda vårat dedikerade LoRaWan nätverk.","location":{"latitude":60.60011794423412,"longitude":16.640897875960203,"altitude":70},"country_code":"se","attributes":{"brand":"Ursalink","frequency_plan":"EU_863_870_TTN"},"online":false,"last_seen":"2025-01-11T14:32:48.836472Z"},"eui-3133303716002d00":{"network":"ttnv2","id":"eui-3133303716002d00","location":{"latitude":59.2968,"longitude":17.9682,"altitude":0},"country_code":"se","online":true,"last_seen":"2025-01-12T15:02:51.413987Z"},"eui-3235313215005000":{"network":"ttn","id":"eui-3235313215005000","name":"Kenneths Lora-Wan","location":{"latitude":60.6790043698123,"longitude":16.4126438113737,"altitude":150},"country_code":"se","attributes":{"frequency_plan":"EU_863_870_TTN"},"online":true,"last_seen":"2025-01-12T15:01:01.018179Z"},"eui-58a0cbfffe804818":{"network":"ttn","id":"eui-58a0cbfffe804818","name":"JM5","location":{"latitude":59.33022503113776,"longitude":18.069485243720557,"altitude":0},"attributes":{"brand":"The Things Industries","frequency_plan":"EU_863_870_TTN","model":"The Things Indoor Gateway"},"online":true,"last_seen":"2025-01-12T15:04:33.144706Z"},"eui-58a0cbfffe80499a":{"network":"ttn","id":"eui-58a0cbfffe80499a","name":"Office Stockholm","location":{"latitude":59.33578169832117,"longitude":18.080274769642543,"altitude":2},"attributes":{"brand":"The Things Industries","frequency_plan":"EU_863_870_TTN","model":"The Things Indoor Gateway"},"online":true,"last_seen":"2025-01-12T14:58:37.436153Z"},"eui-58a0cbfffe804e17":{"network":"ttn","id":"eui-58a0cbfffe804e17","name":"Örebro sjukhus","location":{"latitude":59.276184363237235,"longitude":15.228020936081112,"altitude":0},"country_code":"se","attributes":{"brand":"The Things Industries","frequency_plan":"EU_863_870_TTN","model":"The Things Indoor Gateway"},"online":true,"last_seen":"2025-01-12T14:55:53.169662Z"},"eui-58a0cbfffe805784":{"network":"ttn","id":"eui-58a0cbfffe805784","name":"Handelshögskolan Sthlm","location":{"latitude":59.34182753494189,"longitude":18.056615802906972,"altitude":23},"country_code":"se","attributes":{"brand":"The Things Industries","frequency_plan":"EU_863_870_TTN","model":"The Things Indoor Gateway"},"online":true,"last_seen":"2025-01-12T14:58:50.86125Z"},"eui-58a0cbfffe8069e2":{"network":"ttn","id":"eui-58a0cbfffe8069e2","name":"Origo","description":"Källaren bredvid bevattningsskåp","location":{"latitude":59.357754841538174,"longitude":17.976219720974434,"altitude":22},"country_code":"se","attributes":{"brand":"The Things Industries","frequency_plan":"EU_863_870_TTN","model":"The Things Indoor Gateway"},"online":true,"last_seen":"2025-01-12T14:58:09.004361Z"},"eui-a84041ffff24ba08":{"network":"ttn","id":"eui-a84041ffff24ba08","name":"GWret","location":{"latitude":59.177643338868,"longitude":17.20269620418549,"altitude":0},"country_code":"se","attributes":{"brand":"Dragino","frequency_plan":"EU_863_870_TTN"},"online":true,"last_seen":"2025-01-12T15:00:42.844892Z"},"eui-b827ebfffe1bcd46":{"network":"ttn","id":"eui-b827ebfffe1bcd46","name":"Kvarnis","location":{"latitude":60.7500102968243,"longitude":15.4788123321266,"altitude":200},"country_code":"se","attributes":{"brand":"Raspberry Pi based","frequency_plan":"EU_863_870_TTN"},"online":true,"last_seen":"2025-01-12T15:02:15.087852Z"},"eui-dca632fffe0caad2":{"network":"ttn","id":"eui-dca632fffe0caad2","name":"Anders RAK 7244","location":{"latitude":59.39588371075993,"longitude":17.86856877269997,"altitude":54},"country_code":"se","attributes":{"frequency_plan":"EU_863_870_TTN"},"online":true,"last_seen":"2025-01-12T15:02:15.282933Z"},"furubacken":{"network":"ttn","id":"furubacken","location":{"latitude":59.791389484890566,"longitude":17.7923648354772,"altitude":5},"country_code":"se","attributes":{"brand":"The Things Industries","frequency_plan":"EU_863_870_TTN","model":"The Things Indoor Gateway"},"online":true,"last_seen":"2025-01-12T15:04:17.403392Z"},"gw-p05":{"network":"ttn","id":"gw-p05","name":"Virtuosen - Sjöråen 13","location":{"latitude":59.3421976411108,"longitude":18.05893993259815,"altitude":28},"country_code":"se","attributes":{"brand":"Kerlink","frequency_plan":"EU_863_870_TTN"},"online":true,"last_seen":"2025-01-12T14:57:19.415885Z"},"gw-p06":{"network":"ttn","id":"gw-p06","name":"Virtuosen - Brandmästaren 10","location":{"latitude":59.33690374384158,"longitude":18.082075596248618,"altitude":28},"country_code":"se","attributes":{"brand":"Kerlink","frequency_plan":"EU_863_870_TTN"},"online":true,"last_seen":"2025-01-12T14:57:17.158483Z"},"gw-p07":{"network":"ttn","id":"gw-p07","name":"Virtuosen - Humlegårdsmästaren 4","location":{"latitude":59.339854990216494,"longitude":18.076020240587244,"altitude":28},"country_code":"se","attributes":{"brand":"Kerlink","frequency_plan":"EU_863_870_TTN"},"online":true,"last_seen":"2025-01-12T14:56:57.096143Z"},"gw-p08":{"network":"ttn","id":"gw-p08","name":"Virtuosen - Brännaren 8","location":{"latitude":59.3384729590382,"longitude":18.0842492578449,"altitude":28},"country_code":"se","attributes":{"brand":"Kerlink","frequency_plan":"EU_863_870_TTN"},"online":true,"last_seen":"2025-01-12T15:02:39.424953Z"},"henriksdalsberget":{"network":"ttn","id":"henriksdalsberget","name":"Henriksdalsbergets TTN-Gateway","description":"På en av stockholms högsta punkter...","location":{"latitude":59.309685,"longitude":18.112677,"altitude":74},"country_code":"se","attributes":{"brand":"Raspberry Pi based","frequency_plan":"EU_863_870_TTN"},"online":true,"last_seen":"2025-01-12T15:03:31.192758Z"},"hjalmarb-78-ttig":{"network":"ttn","id":"hjalmarb-78-ttig","location":{"latitude":59.86655608441768,"longitude":17.665704488754276,"altitude":30},"country_code":"se","attributes":{"brand":"The Things Industries","frequency_plan":"EU_863_870_TTN","model":"The Things Indoor Gateway"},"online":true,"last_seen":"2025-01-12T14:56:35.197181Z"},"int-gateway":{"network":"ttn","id":"int-gateway","name":"Int Gateway","location":{"latitude":60.34693007975573,"longitude":15.748054766779564,"altitude":0},"country_code":"se","attributes":{"frequency_plan":"EU_863_870_TTN"},"online":false,"last_seen":"2024-12-31T17:37:55.136873Z"},"loragatewaylundsberg":{"network":"ttn","id":"loragatewaylundsberg","name":"LoRaGateway Lundsberg","location":{"latitude":59.5013217140869,"longitude":14.1705393791199,"altitude":120},"country_code":"se","attributes":{"brand":"Dragino","frequency_plan":"EU_863_870"},"online":true,"last_seen":"2025-01-12T15:02:15.043999Z"},"mechatronicscubicle-gw1":{"network":"ttn","id":"mechatronicscubicle-gw1","name":"MechatronicsCubicle_GW1","description":"MechatronicsCubicle_GW1","location":{"latitude":61.730854923296114,"longitude":17.134122848510746,"altitude":65},"country_code":"se","attributes":{"frequency_plan":"EU_863_870_TTN"},"online":true,"last_seen":"2025-01-12T14:58:31.156063Z"},"modigdesign-gw":{"network":"ttn","id":"modigdesign-gw","name":"modigdesign LoRA Gateway","location":{"latitude":59.37292197215699,"longitude":17.20995495392049,"altitude":20},"attributes":{"frequency_plan":"EU_863_870_TTN"},"online":true,"last_seen":"2025-01-12T14:56:30.989465Z"},"pebry-gateway-num-one":{"network":"ttn","id":"pebry-gateway-num-one","name":"Markus 1","location":{"latitude":61.28406275993648,"longitude":13.924358562278561,"altitude":5},"country_code":"se","attributes":{"brand":"The Things Industries","frequency_plan":"EU_863_870_TTN","model":"The Things Indoor Gateway"},"online":true,"last_seen":"2025-01-12T14:57:01.113448Z"},"pebry-gateway-number-two":{"network":"ttn","id":"pebry-gateway-number-two","name":"Markus 2","location":{"latitude":61.28404835461437,"longitude":13.924146294593813,"altitude":4},"country_code":"se","attributes":{"brand":"The Things Industries","frequency_plan":"EU_863_870_TTN","model":"The Things Indoor Gateway"},"online":true,"last_seen":"2025-01-12T14:58:13.334073Z"},"pygate1":{"network":"ttn","id":"pygate1","name":"bergshamra-ff-pygate1","location":{"latitude":59.381387053209,"longitude":18.0392307675606,"altitude":30},"country_code":"se","attributes":{"brand":"ESP based","frequency_plan":"EU_863_870_TTN"},"online":false,"last_seen":"2025-01-08T19:07:18.875321Z"},"quandify-office":{"network":"ttn","id":"quandify-office","name":"Quandify Office Gateway","description":"Quandify Office LoRaWAN Gateway","location":{"latitude":59.3306365556808,"longitude":17.9845815896988,"altitude":16},"country_code":"se","attributes":{"brand":"Raspberry Pi based","frequency_plan":"EU_863_870"},"online":true,"last_seen":"2025-01-12T15:03:13.062742Z"},"raboda":{"network":"ttn","id":"raboda","location":{"latitude":59.391615089642045,"longitude":15.410272479057314,"altitude":0},"country_code":"se","attributes":{"brand":"The Things Industries","frequency_plan":"EU_863_870_TTN","model":"The Things Indoor Gateway"},"online":true,"last_seen":"2025-01-12T14:57:39.139115Z"},"rg1xx296542":{"network":"ttn","id":"rg1xx296542","name":"LORA_POC","location":{"latitude":60.46642267671008,"longitude":15.461411476135256,"altitude":120},"country_code":"se","attributes":{"brand":"Laird","frequency_plan":"EU_863_870_TTN"},"online":false,"last_seen":"2025-01-12T08:18:43.036728Z"},"se-sto-bbt04":{"network":"ttn","id":"se-sto-bbt04","name":"se-sto-bbt04","location":{"latitude":59.52188,"longitude":17.848204,"altitude":19},"country_code":"se","attributes":{"frequency_plan":"EU_863_870_TTN"},"online":true,"last_seen":"2025-01-12T14:55:57.004517Z"},"slu-siljansfors2":{"network":"ttn","id":"slu-siljansfors2","name":"SLU-Siljansfors2","location":{"latitude":60.88123328793675,"longitude":14.383606016635897,"altitude":240},"country_code":"se","attributes":{"frequency_plan":"EU_863_870_TTN"},"online":true,"last_seen":"2025-01-12T14:59:21.209867Z"},"spetby-skola":{"network":"ttn","id":"spetby-skola","location":{"latitude":59.21287342786147,"longitude":16.22163534164429,"altitude":55},"country_code":"se","attributes":{"brand":"The Things Industries","frequency_plan":"EU_863_870_TTN","model":"The Things Indoor Gateway"},"online":true,"last_seen":"2025-01-12T14:55:13.407389Z"},"tbg-tts-gw-2":{"network":"ttn","id":"tbg-tts-gw-2","name":"tbg-tts-gw-2","location":{"latitude":59.4819605105524,"longitude":17.9250499606133,"altitude":17},"country_code":"se","attributes":{"brand":"Raspberry Pi based","frequency_plan":"EU_863_870_TTN"},"online":true,"last_seen":"2025-01-12T15:01:31.277159Z"},"tcab-gateway-02":{"network":"ttn","id":"tcab-gateway-02","name":"Tedenljung Consulting AB","description":"The Things Indoor Gateway","location":{"latitude":59.88993968614086,"longitude":13.706023672791073,"altitude":186},"country_code":"se","attributes":{"brand":"The Things Industries","frequency_plan":"EU_863_870_TTN","model":"The Things Indoor Gateway"},"online":true,"last_seen":"2025-01-12T14:56:29.401662Z"},"ttn-taeby-miktotik":{"network":"ttn","id":"ttn-taeby-miktotik","name":"Bastuholmsv8-ttn-1","location":{"latitude":59.42375345,"longitude":18.09997886,"altitude":11},"attributes":{"frequency_plan":"EU_863_870_TTN"},"online":true,"last_seen":"2025-01-12T14:58:19.292829Z"},"ttnind001":{"network":"ttn","id":"ttnind001","location":{"latitude":59.18561181499134,"longitude":17.670427322846084,"altitude":14},"country_code":"se","attributes":{"brand":"The Things Industries","frequency_plan":"EU_863_870","model":"The Things Indoor Gateway"},"online":true,"last_seen":"2025-01-12T15:02:45.216748Z"},"virtual-gateway1":{"network":"ttn","id":"virtual-gateway1","name":"virtual gateway 1","description":"Docker Mbed Simulator","location":{"latitude":60.48856402,"longitude":15.3882648,"altitude":160},"country_code":"se","attributes":{"frequency_plan":"EU_863_870_TTN"},"online":true,"last_seen":"2025-01-12T15:04:11.143841Z"},"wom-lora-gw":{"network":"ttn","id":"wom-lora-gw","location":{"latitude":59.3373753486278,"longitude":16.64154320955277,"altitude":88},"country_code":"se","attributes":{"brand":"Raspberry Pi based","frequency_plan":"EU_863_870_TTN"},"online":false,"last_seen":"2025-01-12T15:04:47.420166Z"},"xrf92mssizeum3cxb9zy-qwp3wo-ha-jjs8t":{"network":"ttn","id":"xrf92mssizeum3cxb9zy-qwp3wo-ha-jjs8t","name":"Mälaröarna-Färingsö","location":{"latitude":59.415042,"longitude":17.665415,"altitude":10},"country_code":"se","attributes":{"frequency_plan":"EU_863_870_TTN"},"online":true,"last_seen":"2025-01-12T14:59:33.137541Z"}}
