{"24e124fffef658ae":{"network":"ttn","id":"24e124fffef658ae","name":"GW_Kontor","location":{"latitude":59.8462688312813,"longitude":17.670704126358,"altitude":0},"country_code":"se","attributes":{"brand":"Ursalink","frequency_plan":"EU_863_870_TTN"},"online":true,"last_seen":"2025-01-12T12:01:47.157882Z"},"24e124fffef9a59a":{"network":"ttn","id":"24e124fffef9a59a","name":"Lana harbour","location":{"latitude":57.67801064731383,"longitude":12.004436162541747,"altitude":18},"country_code":"se","attributes":{"brand":"Ursalink","frequency_plan":"EU_863_870_TTN"},"online":true,"last_seen":"2025-01-12T11:56:58.922521Z"},"3135323515004700":{"network":"ttn","id":"3135323515004700","name":"Hölminge","location":{"latitude":56.913908,"longitude":13.77973,"altitude":162},"country_code":"se","attributes":{"frequency_plan":"EU_863_870_TTN"},"online":true,"last_seen":"2025-01-12T11:57:47.285228Z"},"3235313231006a00":{"network":"ttn","id":"3235313231006a00","name":"Mikrotik GSM 3235313231006A00","location":{"latitude":55.779913896915,"longitude":13.3111624214084,"altitude":0},"country_code":"se","attributes":{"frequency_plan":"EU_863_870"},"online":true,"last_seen":"2025-01-12T11:56:35.16723Z"},"4d48903809061b36":{"network":"ttn","id":"4d48903809061b36","name":"@Ericsson Garage","location":{"latitude":57.70514,"longitude":11.94177,"altitude":0},"country_code":"se","attributes":{"frequency_plan":"EU_863_870_TTN"},"online":true,"last_seen":"2025-01-12T11:54:05.354869Z"},"4d48903809061b47":{"network":"ttn","id":"4d48903809061b47","name":"@Ericsson Roof","location":{"latitude":57.7041,"longitude":11.9424,"altitude":0},"country_code":"se","attributes":{"frequency_plan":"EU_863_870_TTN"},"online":true,"last_seen":"2025-01-12T12:00:42.946047Z"},"5031395378604750":{"network":"ttn","id":"5031395378604750","name":"vtklora1","location":{"latitude":59.5480241284322,"longitude":18.0534062131918,"altitude":30},"country_code":"se","attributes":{"frequency_plan":"EU_863_870_TTN"},"online":true,"last_seen":"2025-01-12T11:58:19.1519Z"},"a840411da3444150":{"network":"ttn","id":"a840411da3444150","name":"LoRaWAN Pico Station","description":"Model LPS8","location":{"latitude":55.568217090743794,"longitude":13.129918401150052,"altitude":19},"country_code":"se","attributes":{"brand":"Dragino","frequency_plan":"EU_863_870_TTN"},"online":true,"last_seen":"2025-01-12T12:01:07.032259Z"},"a84041ffff21b068":{"network":"ttn","id":"a84041ffff21b068","location":{"latitude":60.11022170741412,"longitude":13.563072681427004,"altitude":135},"country_code":"se","attributes":{"brand":"Dragino","frequency_plan":"EU_863_870_TTN"},"online":true,"last_seen":"2025-01-12T12:00:23.444967Z"},"ab-software-jetty":{"network":"ttn","id":"ab-software-jetty","name":"Beach Gateway","location":{"latitude":57.53623218508922,"longitude":12.430037856101992,"altitude":17},"country_code":"se","attributes":{"brand":"Dragino","frequency_plan":"EU_863_870"},"online":true,"last_seen":"2025-01-12T11:59:00.769733Z"},"ap-grim13-151":{"network":"ttn","id":"ap-grim13-151","name":"apgw-grim13","location":{"latitude":57.6785067344248,"longitude":11.900671660914671,"altitude":42},"country_code":"se","attributes":{"brand":"MultiTech","frequency_plan":"EU_863_870_TTN"},"online":true,"last_seen":"2025-01-12T11:57:45.424702Z"},"are-gate":{"network":"ttn","id":"are-gate","name":"RAK2245 Rasberry PI GW Hat","location":{"latitude":63.37737317493363,"longitude":13.150851689279081,"altitude":400},"country_code":"se","attributes":{"brand":"Raspberry Pi based","frequency_plan":"EU_863_870_TTN"},"online":true,"last_seen":"2025-01-12T11:55:27.324721Z"},"atlingbo-lillabjorke":{"network":"ttn","id":"atlingbo-lillabjorke","name":"Atlingbo Lilla björke","location":{"latitude":57.488166866521425,"longitude":18.395650474994195,"altitude":0},"country_code":"se","attributes":{"frequency_plan":"EU_863_870_TTN"},"online":true,"last_seen":"2025-01-12T11:56:49.142578Z"},"bali-automation-lab":{"network":"ttn","id":"bali-automation-lab","name":"Bali Automation Lab","location":{"latitude":55.8973393382053,"longitude":13.140238523483278,"altitude":55},"country_code":"se","attributes":{"brand":"Dragino","frequency_plan":"EU_863_870_TTN"},"online":true,"last_seen":"2025-01-12T11:59:48.865141Z"},"bg14-ttn":{"network":"ttn","id":"bg14-ttn","name":"bg14-ttn","description":"LoRa Gateway in Hejdegården , Linköping, Sweden","location":{"latitude":58.40267869,"longitude":15.63787872,"altitude":62},"country_code":"se","attributes":{"frequency_plan":"EU_863_870_TTN"},"online":true,"last_seen":"2025-01-12T11:56:05.438019Z"},"brfeslovsgarden-malmo":{"network":"ttn","id":"brfeslovsgarden-malmo","name":"Brf Eslövsgården, Malmö","description":"Link2Web at Brf Eslövsgården, Malmö","location":{"latitude":55.59483741894294,"longitude":13.019453287124634,"altitude":5},"country_code":"se","attributes":{"brand":"Dragino","frequency_plan":"EU_863_870_TTN"},"online":true,"last_seen":"2025-01-12T11:55:57.117911Z"},"brfmajoren-malmo":{"network":"ttn","id":"brfmajoren-malmo","name":"Volvo, Sunnanå","location":{"latitude":55.6166343958464,"longitude":13.1202509569255,"altitude":15},"country_code":"se","attributes":{"brand":"Dragino","frequency_plan":"EU_863_870_TTN"},"online":true,"last_seen":"2025-01-12T11:58:59.161857Z"},"bruka-lora":{"network":"ttn","id":"bruka-lora","name":"bruka-lora01","description":"TheThings Gateway","location":{"latitude":61.71015071020431,"longitude":16.63781118353654,"altitude":110},"country_code":"se","attributes":{"frequency_plan":"EU_863_870_TTN"},"online":true,"last_seen":"2025-01-12T12:01:37.377124Z"},"buffalo-gateway2":{"network":"ttn","id":"buffalo-gateway2","name":"ABASTO RAK7256 GW","location":{"latitude":59.63893513584886,"longitude":17.761878251712606,"altitude":20},"country_code":"se","attributes":{"frequency_plan":"EU_863_870_TTN"},"online":true,"last_seen":"2025-01-12T11:59:07.100118Z"},"c0ee40ffff2944ad":{"network":"ttn","id":"c0ee40ffff2944ad","name":"Pauliskolans Teknikprogram Robotlabbet","location":{"latitude":55.60029740864197,"longitude":13.009527836747125,"altitude":15},"country_code":"se","attributes":{"brand":"Laird","frequency_plan":"EU_863_870"},"online":true,"last_seen":"2025-01-12T11:58:37.386912Z"},"campus-borlange-gateway":{"network":"ttn","id":"campus-borlange-gateway","name":"LoRaWAN Campus Borlänge","description":"LoRaWAN Campus Borlänge","location":{"latitude":60.48744,"longitude":15.40964,"altitude":147},"country_code":"se","attributes":{"brand":"Gemtek","frequency_plan":"EU_863_870_TTN"},"online":true,"last_seen":"2025-01-12T11:55:43.020123Z"},"chipguy-sagolandet-gw1":{"network":"ttn","id":"chipguy-sagolandet-gw1","name":"Axéns väg","location":{"latitude":59.325847786478974,"longitude":18.22466611862183,"altitude":20},"country_code":"se","attributes":{"brand":"The Things Industries","frequency_plan":"EU_863_870_TTN","model":"The Things Indoor Gateway"},"online":true,"last_seen":"2025-01-12T11:59:09.169182Z"},"combitechkontor":{"network":"ttn","id":"combitechkontor","location":{"latitude":58.391468581613665,"longitude":15.565123519306237,"altitude":0},"country_code":"se","attributes":{"brand":"The Things Industries","frequency_plan":"EU_863_870_TTN","model":"The Things Indoor Gateway"},"online":true,"last_seen":"2025-01-12T11:53:44.967929Z"},"creativeenabler04":{"network":"ttn","id":"creativeenabler04","name":"creativeenabler04 - ÄLGEN4","description":"creativeenabler04 - ÄLGEN4","location":{"latitude":62.87357889688892,"longitude":12.749416209417282,"altitude":870},"country_code":"se","attributes":{"frequency_plan":"EU_863_870_TTN"},"online":true,"last_seen":"2025-01-12T11:55:32.807603Z"},"davmoz":{"network":"ttn","id":"davmoz","name":"Damos - Norrliden","description":"Public indoor gateway. ","location":{"latitude":56.70550090932908,"longitude":16.357733309268955,"altitude":0},"country_code":"se","attributes":{"brand":"Dragino","frequency_plan":"EU_863_870_TTN"},"online":true,"last_seen":"2025-01-12T11:54:49.032122Z"},"dc02-gw1":{"network":"ttn","id":"dc02-gw1","name":"Servercentralen GW1 - A \u003eone","location":{"latitude":59.353807218668415,"longitude":17.976169029716406,"altitude":0},"country_code":"se","attributes":{"frequency_plan":"EU_863_870"},"online":true,"last_seen":"2025-01-12T12:01:01.144044Z"},"djura-igw":{"network":"ttn","id":"djura-igw","location":{"latitude":56.703931,"longitude":14.835584,"altitude":155},"country_code":"se","attributes":{"brand":"The Things Industries","frequency_plan":"EU_863_870_TTN","model":"The Things Indoor Gateway"},"online":true,"last_seen":"2025-01-12T11:58:54.937174Z"},"effar-wan-gw":{"network":"ttn","id":"effar-wan-gw","name":"effar-wan-gw","location":{"latitude":59.45276603766618,"longitude":17.980365157127384,"altitude":20},"country_code":"se","attributes":{"brand":"Dragino","frequency_plan":"EU_863_870_TTN"},"online":true,"last_seen":"2025-01-12T11:59:53.365844Z"},"eh-lorixone-232":{"network":"ttn","id":"eh-lorixone-232","name":"eh-lorixone-232","description":"eh-lorixone-232","location":{"latitude":55.436326,"longitude":13.502694,"altitude":30},"country_code":"se","attributes":{"frequency_plan":"EU_863_870_TTN"},"online":true,"last_seen":"2025-01-12T11:53:02.945883Z"},"elpe-gw1":{"network":"ttn","id":"elpe-gw1","name":"elpe-gw1","description":"ELPE Adventures Gateway #1","location":{"latitude":56.09699974,"longitude":12.66374134,"altitude":49},"country_code":"se","attributes":{"brand":"Raspberry Pi based","frequency_plan":"EU_863_870_TTN"},"online":true,"last_seen":"2025-01-12T11:52:48.978851Z"},"enfo-ttn-demo":{"network":"ttn","id":"enfo-ttn-demo","name":"enfo-ttn-demo","description":"Enfo Västerås Demo Gateway","location":{"latitude":59.65592680545917,"longitude":16.54524922370911,"altitude":0},"country_code":"se","attributes":{"brand":"Laird","frequency_plan":"EU_863_870_TTN"},"online":true,"last_seen":"2025-01-12T12:00:42.949722Z"},"erlandtech-outdoor":{"network":"ttn","id":"erlandtech-outdoor","name":"Erlandtech Long-Range GW","location":{"latitude":56.766261,"longitude":14.827908,"altitude":153},"country_code":"se","attributes":{"frequency_plan":"EU_863_870_TTN"},"online":true,"last_seen":"2025-01-12T11:54:59.203515Z"},"eui-00800000a0003762":{"network":"ttnv2","id":"eui-00800000a0003762","location":{"latitude":56.68466843,"longitude":12.85289921,"altitude":35},"country_code":"se","attributes":{"brand":"MultiTech"},"online":true,"last_seen":"2025-01-12T11:55:35.150292Z"},"eui-24e124fffef57b44":{"network":"ttn","id":"eui-24e124fffef57b44","name":"CEEX","location":{"latitude":64.97901425912103,"longitude":19.327052076670093,"altitude":400},"country_code":"se","attributes":{"brand":"Ursalink","frequency_plan":"EU_863_870_TTN"},"online":true,"last_seen":"2025-01-12T11:57:59.429952Z"},"eui-24e124fffef7cc42":{"network":"ttn","id":"eui-24e124fffef7cc42","name":"SjöteknikAB_Storsjön1_UG56_community","description":"Commersiell gateway som används i dedikerat nätverk för diverse sensorer runt storsjön men även tillgänglig här för er att använda. placerad på 77möh med extern GP868 antenn. Ups/Wan/LTE. Kontakta Marcus på Sjöteknik i Gävle AB om ni har funderingar eller önskar få använda vårat dedikerade LoRaWan nätverk.","location":{"latitude":60.60011794423412,"longitude":16.640897875960203,"altitude":70},"country_code":"se","attributes":{"brand":"Ursalink","frequency_plan":"EU_863_870_TTN"},"online":false,"last_seen":"2025-01-11T14:32:48.836472Z"},"eui-24e124fffef9a166":{"network":"ttn","id":"eui-24e124fffef9a166","name":"UG63 Milesight","location":{"latitude":58.013897934237576,"longitude":11.584006360127455,"altitude":12},"country_code":"se","attributes":{"brand":"Ursalink","frequency_plan":"EU_863_870_TTN"},"online":true,"last_seen":"2025-01-12T11:55:23.44498Z"},"eui-3133303716002d00":{"network":"ttnv2","id":"eui-3133303716002d00","location":{"latitude":59.2968,"longitude":17.9682,"altitude":0},"country_code":"se","online":true,"last_seen":"2025-01-12T11:56:48.924887Z"},"eui-313532354a006400":{"network":"ttn","id":"eui-313532354a006400","name":"Rosteriet","location":{"latitude":55.5736373597064,"longitude":12.9333543777466,"altitude":4},"country_code":"se","attributes":{"frequency_plan":"EU_863_870"},"online":false,"last_seen":"2025-01-04T12:02:17.463141Z"},"eui-3234333662003400":{"network":"ttnv2","id":"eui-3234333662003400","location":{"latitude":63.0077,"longitude":16.6669,"altitude":141},"country_code":"se","online":true,"last_seen":"2025-01-12T11:52:37.180723Z"},"eui-3235313215005000":{"network":"ttn","id":"eui-3235313215005000","name":"Kenneths Lora-Wan","location":{"latitude":60.6790043698123,"longitude":16.4126438113737,"altitude":150},"country_code":"se","attributes":{"frequency_plan":"EU_863_870_TTN"},"online":true,"last_seen":"2025-01-12T11:57:51.234473Z"},"eui-3235313230004f00":{"network":"ttn","id":"eui-3235313230004f00","name":"Mikrotik Ltap Hasselstigen 8 Höör","description":"Mikrotik Ltap LRE6 with Lora8 board, has a 5db antenna.","location":{"latitude":55.90654498162238,"longitude":13.494952619075777,"altitude":0},"country_code":"se","attributes":{"frequency_plan":"EU_863_870"},"online":true,"last_seen":"2025-01-12T12:01:25.158729Z"},"eui-503035412b324770":{"network":"ttn","id":"eui-503035412b324770","name":"Widegrens_sylfaste","location":{"latitude":57.5869037401749,"longitude":18.4320626656177,"altitude":7},"country_code":"se","attributes":{"frequency_plan":"EU_863_870_TTN"},"online":true,"last_seen":"2025-01-12T12:00:01.018995Z"},"eui-50313953113b4750":{"network":"ttn","id":"eui-50313953113b4750","name":"mtlora1","location":{"latitude":57.6996186076181,"longitude":14.3595707416534,"altitude":0},"country_code":"se","attributes":{"frequency_plan":"EU_863_870_TTN"},"online":false,"last_seen":"2025-01-12T12:00:16.953495Z"},"eui-503139534f674750":{"network":"ttn","id":"eui-503139534f674750","name":"nerdtech-lora-brosarp","location":{"latitude":55.77624757656672,"longitude":14.080737785096654,"altitude":140},"country_code":"se","attributes":{"frequency_plan":"EU_863_870"},"online":true,"last_seen":"2025-01-12T11:59:31.144716Z"},"eui-5031395377224750":{"network":"ttn","id":"eui-5031395377224750","name":"nerdtech-lora-4","location":{"latitude":56.0220854562697,"longitude":14.1578742953688,"altitude":0},"country_code":"se","attributes":{"frequency_plan":"EU_863_870_TTN"},"online":true,"last_seen":"2025-01-12T12:01:37.378297Z"},"eui-58a0cbfffe80118d":{"network":"ttn","id":"eui-58a0cbfffe80118d","name":"eui-58a0cbfffe80118d Borgeby","location":{"latitude":55.7496735,"longitude":13.03671908,"altitude":5},"country_code":"se","attributes":{"brand":"The Things Industries","frequency_plan":"EU_863_870","model":"The Things Indoor Gateway"},"online":true,"last_seen":"2025-01-12T11:52:36.851915Z"},"eui-58a0cbfffe804cd3":{"network":"ttn","id":"eui-58a0cbfffe804cd3","name":"Hemma","location":{"latitude":55.6024811065424,"longitude":13.0337789654732,"altitude":6},"country_code":"se","attributes":{"brand":"The Things Industries","frequency_plan":"EU_863_870_TTN","model":"The Things Indoor Gateway"},"online":true,"last_seen":"2025-01-12T12:01:43.201062Z"},"eui-58a0cbfffe804d4f":{"network":"ttn","id":"eui-58a0cbfffe804d4f","name":"Swegon Malmö","location":{"latitude":55.6036841601613,"longitude":13.0628552509144,"altitude":0},"country_code":"se","attributes":{"brand":"The Things Industries","frequency_plan":"EU_863_870_TTN","model":"The Things Indoor Gateway"},"online":true,"last_seen":"2025-01-12T11:58:05.277705Z"},"eui-58a0cbfffe804dce":{"network":"ttn","id":"eui-58a0cbfffe804dce","name":"Center Syd","location":{"latitude":55.76845622408867,"longitude":12.989693379201338,"altitude":3},"country_code":"se","attributes":{"brand":"The Things Industries","frequency_plan":"EU_863_870_TTN","model":"The Things Indoor Gateway"},"online":true,"last_seen":"2025-01-12T12:01:19.914059Z"},"eui-58a0cbfffe804e17":{"network":"ttn","id":"eui-58a0cbfffe804e17","name":"Örebro sjukhus","location":{"latitude":59.276184363237235,"longitude":15.228020936081112,"altitude":0},"country_code":"se","attributes":{"brand":"The Things Industries","frequency_plan":"EU_863_870_TTN","model":"The Things Indoor Gateway"},"online":true,"last_seen":"2025-01-12T11:58:59.438702Z"},"eui-58a0cbfffe804e5b":{"network":"ttn","id":"eui-58a0cbfffe804e5b","name":"Mobilia","location":{"latitude":55.58211568686106,"longitude":13.003989155958477,"altitude":7},"country_code":"se","attributes":{"brand":"The Things Industries","frequency_plan":"EU_863_870_TTN","model":"The Things Indoor Gateway"},"online":true,"last_seen":"2025-01-12T11:56:05.439954Z"},"eui-58a0cbfffe804f14":{"network":"ttn","id":"eui-58a0cbfffe804f14","location":{"latitude":58.5033996557493,"longitude":13.1526798905932,"altitude":0},"country_code":"se","attributes":{"brand":"The Things Industries","frequency_plan":"EU_863_870_TTN","model":"The Things Indoor Gateway"},"online":true,"last_seen":"2025-01-12T11:54:29.078694Z"},"eui-58a0cbfffe804f43":{"network":"ttn","id":"eui-58a0cbfffe804f43","name":"Lagret region syd","location":{"latitude":55.75722916308928,"longitude":13.1211667689468,"altitude":2},"country_code":"se","attributes":{"brand":"The Things Industries","frequency_plan":"EU_863_870_TTN","model":"The Things Indoor Gateway"},"online":true,"last_seen":"2025-01-12T11:54:50.908179Z"},"eui-58a0cbfffe804f5e":{"network":"ttn","id":"eui-58a0cbfffe804f5e","name":"Vätterhem","location":{"latitude":57.78160974737289,"longitude":14.20485672027641,"altitude":0},"country_code":"se","attributes":{"brand":"The Things Industries","frequency_plan":"EU_863_870_TTN","model":"The Things Indoor Gateway"},"online":true,"last_seen":"2025-01-12T11:55:35.438564Z"},"eui-58a0cbfffe804f78":{"network":"ttn","id":"eui-58a0cbfffe804f78","name":"Eden Malmö","location":{"latitude":55.5591661287257,"longitude":12.9725173254022,"altitude":20},"country_code":"se","attributes":{"brand":"The Things Industries","frequency_plan":"EU_863_870_TTN","model":"The Things Indoor Gateway"},"online":true,"last_seen":"2025-01-12T11:58:21.273361Z"},"eui-58a0cbfffe804fa7":{"network":"ttn","id":"eui-58a0cbfffe804fa7","name":"H\u0026M Malmö","location":{"latitude":55.603181152149425,"longitude":13.00169974565506,"altitude":1},"country_code":"se","attributes":{"brand":"The Things Industries","frequency_plan":"EU_863_870_TTN","model":"The Things Indoor Gateway"},"online":true,"last_seen":"2025-01-12T12:00:57.097415Z"},"eui-58a0cbfffe805525":{"network":"ttn","id":"eui-58a0cbfffe805525","location":{"latitude":59.1447940935948,"longitude":18.1218961664326,"altitude":0},"country_code":"se","attributes":{"brand":"The Things Industries","frequency_plan":"EU_863_870_TTN","model":"The Things Indoor Gateway"},"online":true,"last_seen":"2025-01-12T11:54:21.402755Z"},"eui-58a0cbfffe805784":{"network":"ttn","id":"eui-58a0cbfffe805784","name":"Handelshögskolan Sthlm","location":{"latitude":59.34182753494189,"longitude":18.056615802906972,"altitude":23},"country_code":"se","attributes":{"brand":"The Things Industries","frequency_plan":"EU_863_870_TTN","model":"The Things Indoor Gateway"},"online":true,"last_seen":"2025-01-12T11:56:25.232463Z"},"eui-58a0cbfffe8069e2":{"network":"ttn","id":"eui-58a0cbfffe8069e2","name":"Origo","description":"Källaren bredvid bevattningsskåp","location":{"latitude":59.357754841538174,"longitude":17.976219720974434,"altitude":22},"country_code":"se","attributes":{"brand":"The Things Industries","frequency_plan":"EU_863_870_TTN","model":"The Things Indoor Gateway"},"online":true,"last_seen":"2025-01-12T11:57:57.414411Z"},"eui-60c5a8fffe7663b6":{"network":"ttnv2","id":"eui-60c5a8fffe7663b6","location":{"latitude":55.8394082,"longitude":13.28843243,"altitude":68},"country_code":"se","online":true,"last_seen":"2025-01-12T11:55:53.267964Z"},"eui-a840411f591c4150":{"network":"ttn","id":"eui-a840411f591c4150","name":"ese","location":{"latitude":55.4661074237911,"longitude":13.0106299686581,"altitude":0},"country_code":"se","attributes":{"brand":"Dragino","frequency_plan":"EU_863_870_TTN"},"online":true,"last_seen":"2025-01-12T11:58:31.203562Z"},"eui-a84041ffff1f4e48":{"network":"ttn","id":"eui-a84041ffff1f4e48","name":"Abisko Research Station","location":{"latitude":68.35435,"longitude":18.814673,"altitude":0},"country_code":"se","attributes":{"brand":"Dragino","frequency_plan":"EU_863_870_TTN"},"online":true,"last_seen":"2025-01-12T11:55:57.102479Z"},"eui-a84041ffff24ba08":{"network":"ttn","id":"eui-a84041ffff24ba08","name":"GWret","location":{"latitude":59.177643338868,"longitude":17.20269620418549,"altitude":0},"country_code":"se","attributes":{"brand":"Dragino","frequency_plan":"EU_863_870_TTN"},"online":true,"last_seen":"2025-01-12T12:01:35.191526Z"},"eui-a84041ffff268b2c":{"network":"ttn","id":"eui-a84041ffff268b2c","name":"Lind3","location":{"latitude":57.5422766142237,"longitude":12.111009367864,"altitude":450},"country_code":"se","attributes":{"brand":"Dragino","frequency_plan":"EU_863_870_TTN"},"online":true,"last_seen":"2025-01-12T12:00:11.443215Z"},"eui-a84041ffff27bd0d":{"network":"ttn","id":"eui-a84041ffff27bd0d","name":"Dragino-LPS8N-Baelshult","location":{"latitude":56.7703462932051,"longitude":15.5678008555682,"altitude":0},"country_code":"se","attributes":{"brand":"Dragino","frequency_plan":"EU_863_870"},"online":true,"last_seen":"2025-01-12T11:58:03.227379Z"},"eui-ab056f8fb8d07801":{"network":"ttn","id":"eui-ab056f8fb8d07801","name":"Margaretavägen, Lund","description":"A multichannel LoRa gateway based on the Pycom Pygate.","location":{"latitude":55.71917837,"longitude":13.19388969,"altitude":35},"country_code":"se","attributes":{"frequency_plan":"EU_863_870_TTN"},"online":true,"last_seen":"2025-01-12T11:54:35.138093Z"},"eui-ac1f09fffe01624c":{"network":"ttnv2","id":"eui-ac1f09fffe01624c","location":{"latitude":56.67030959,"longitude":12.91358579,"altitude":0},"country_code":"se","online":true,"last_seen":"2025-01-12T11:56:15.568118Z"},"eui-ac1f09fffe065442":{"network":"ttn","id":"eui-ac1f09fffe065442","name":"RAK-gateway-eub-0","location":{"latitude":57.63831827266294,"longitude":12.025845089552183,"altitude":0},"country_code":"se","attributes":{"frequency_plan":"EU_863_870_TTN"},"online":true,"last_seen":"2025-01-12T11:53:43.197492Z"},"eui-b827ebfffe1bcd46":{"network":"ttn","id":"eui-b827ebfffe1bcd46","name":"Kvarnis","location":{"latitude":60.7500102968243,"longitude":15.4788123321266,"altitude":200},"country_code":"se","attributes":{"brand":"Raspberry Pi based","frequency_plan":"EU_863_870_TTN"},"online":true,"last_seen":"2025-01-12T12:00:23.440817Z"},"eui-b827ebfffe24e290":{"network":"ttn","id":"eui-b827ebfffe24e290","name":"j36701_RPiGW","location":{"latitude":62.406743317472774,"longitude":17.25666396831147,"altitude":36},"country_code":"se","attributes":{"brand":"Raspberry Pi based","frequency_plan":"EU_863_870_TTN"},"online":true,"last_seen":"2025-01-12T11:53:13.412089Z"},"eui-b827ebfffe45ab80":{"network":"ttn","id":"eui-b827ebfffe45ab80","name":"Bohus TTN GW 1","description":"Multi-channel DIY gateway\nRaspberry Pi with RAK831","location":{"latitude":57.8522874697047,"longitude":12.03003466129303,"altitude":0},"country_code":"se","attributes":{"brand":"Raspberry Pi based","frequency_plan":"EU_863_870_TTN"},"online":true,"last_seen":"2025-01-12T11:59:41.145366Z"},"eui-b827ebfffea31ec7":{"network":"ttn","id":"eui-b827ebfffea31ec7","name":"SA6TAO-Vallda","location":{"latitude":57.44739,"longitude":11.97959,"altitude":45},"country_code":"se","attributes":{"brand":"Raspberry Pi based","frequency_plan":"EU_863_870_TTN"},"online":true,"last_seen":"2025-01-12T11:59:33.384871Z"},"eui-b827ebfffeb0dcd1":{"network":"ttnv2","id":"eui-b827ebfffeb0dcd1","location":{"latitude":58.3962596,"longitude":15.54107583,"altitude":40},"country_code":"se","attributes":{"brand":"Raspberry Pi based"},"online":true,"last_seen":"2025-01-12T11:55:39.37669Z"},"eui-b827ebfffebea1e0":{"network":"ttn","id":"eui-b827ebfffebea1e0","name":"Rasp pi rak ttnv3","location":{"latitude":58.6628291715134,"longitude":16.398299986648517,"altitude":20},"country_code":"se","attributes":{"brand":"Raspberry Pi based","frequency_plan":"EU_863_870_TTN"},"online":true,"last_seen":"2025-01-12T12:01:24.106168Z"},"eui-b827ebfffecc5d52":{"network":"ttn","id":"eui-b827ebfffecc5d52","name":"GW,  Hammarbyhöjden, Stockholm","description":"IMST Lite GW, Taoglass antenna. Good visibility south, west and east, but not north. Covers south of stockholm, but not areas like hammarby sjöstad.","location":{"latitude":59.291947567998,"longitude":18.0979123336447,"altitude":0},"country_code":"se","attributes":{"brand":"Raspberry Pi based","frequency_plan":"EU_863_870"},"online":true,"last_seen":"2025-01-12T11:52:47.404075Z"},"eui-c0ee40ffff293861":{"network":"ttnv2","id":"eui-c0ee40ffff293861","location":{"latitude":57.50469043,"longitude":12.06923789,"altitude":0},"country_code":"se","attributes":{"brand":"Laird"},"online":true,"last_seen":"2025-01-12T11:54:03.15486Z"},"eui-c0ee40ffff293a0a":{"network":"ttnv2","id":"eui-c0ee40ffff293a0a","location":{"latitude":55.70940442,"longitude":13.20143665,"altitude":0},"country_code":"se","attributes":{"brand":"Laird"},"online":true,"last_seen":"2025-01-12T12:00:16.878132Z"},"eui-c0ee40ffff2944d5":{"network":"ttnv2","id":"eui-c0ee40ffff2944d5","location":{"latitude":55.60019253,"longitude":13.00949909,"altitude":20},"country_code":"se","attributes":{"brand":"Laird"},"online":true,"last_seen":"2025-01-12T12:00:11.197527Z"},"eui-dca632fffe0caad2":{"network":"ttn","id":"eui-dca632fffe0caad2","name":"Anders RAK 7244","location":{"latitude":59.39588371075993,"longitude":17.86856877269997,"altitude":54},"country_code":"se","attributes":{"frequency_plan":"EU_863_870_TTN"},"online":true,"last_seen":"2025-01-12T11:57:31.403674Z"},"eui-fcc23dfffe0b6de6":{"network":"ttn","id":"eui-fcc23dfffe0b6de6","name":"nerdtech-lorixone","location":{"latitude":56.005952685609245,"longitude":14.063830375671388,"altitude":50},"country_code":"se","attributes":{"frequency_plan":"EU_863_870_TTN"},"online":true,"last_seen":"2025-01-12T11:56:35.33393Z"},"evlinge-04":{"network":"ttn","id":"evlinge-04","location":{"latitude":59.35277985821107,"longitude":18.55627834796906,"altitude":0},"country_code":"se","attributes":{"brand":"The Things Industries","frequency_plan":"EU_863_870_TTN","model":"The Things Indoor Gateway"},"online":true,"last_seen":"2025-01-12T11:52:05.19812Z"},"fablora-02":{"network":"ttn","id":"fablora-02","name":"Badvägen-2","location":{"latitude":55.5256473843432,"longitude":12.9325141538004,"altitude":13},"country_code":"se","attributes":{"brand":"Dragino","frequency_plan":"EU_863_870_TTN"},"online":true,"last_seen":"2025-01-12T11:55:27.169308Z"},"fablora-10":{"network":"ttn","id":"fablora-10","name":"Landet-1","location":{"latitude":55.783409477081634,"longitude":14.196388538548492,"altitude":5},"country_code":"se","attributes":{"brand":"Dragino","frequency_plan":"EU_863_870_TTN"},"online":true,"last_seen":"2025-01-12T11:58:01.33331Z"},"fablora-11":{"network":"ttn","id":"fablora-11","name":"Landet Indoor Gateway","location":{"latitude":55.783540073818884,"longitude":14.19654760087724,"altitude":5},"country_code":"se","attributes":{"brand":"The Things Industries","frequency_plan":"EU_863_870_TTN","model":"The Things Indoor Gateway"},"online":true,"last_seen":"2025-01-12T12:01:03.232263Z"},"fal-va-ttig-03":{"network":"ttn","id":"fal-va-ttig-03","name":"hos RJ","location":{"latitude":58.17684684926051,"longitude":13.540032505989075,"altitude":0},"country_code":"se","attributes":{"brand":"The Things Industries","frequency_plan":"EU_863_870_TTN","model":"The Things Indoor Gateway"},"online":true,"last_seen":"2025-01-12T11:59:17.065127Z"},"fal-va-ttig-04":{"network":"ttn","id":"fal-va-ttig-04","name":"hos AK","location":{"latitude":58.15258903,"longitude":13.5523426,"altitude":0},"country_code":"se","attributes":{"brand":"The Things Industries","frequency_plan":"EU_863_870_TTN","model":"The Things Indoor Gateway"},"online":true,"last_seen":"2025-01-12T12:00:13.256311Z"},"fal-va-ttog-01":{"network":"ttn","id":"fal-va-ttog-01","name":"hos FS ute","location":{"latitude":58.13894931,"longitude":13.33833982,"altitude":0},"country_code":"se","attributes":{"brand":"Gemtek","frequency_plan":"EU_863_870_TTN"},"online":true,"last_seen":"2025-01-12T11:59:55.14078Z"},"fal-va-ttog-03":{"network":"ttn","id":"fal-va-ttog-03","name":"gw 03 Motionscentralen","location":{"latitude":58.17492,"longitude":13.52222,"altitude":299},"country_code":"se","attributes":{"brand":"Gemtek","frequency_plan":"EU_863_870_TTN"},"online":true,"last_seen":"2025-01-12T11:58:10.997332Z"},"fasan-indoor":{"network":"ttn","id":"fasan-indoor","location":{"latitude":55.5753365252492,"longitude":13.01047593355179,"altitude":10},"country_code":"se","attributes":{"brand":"The Things Industries","frequency_plan":"EU_863_870_TTN","model":"The Things Indoor Gateway"},"online":true,"last_seen":"2025-01-12T11:55:45.301755Z"},"furubacken":{"network":"ttn","id":"furubacken","location":{"latitude":59.791389484890566,"longitude":17.7923648354772,"altitude":5},"country_code":"se","attributes":{"brand":"The Things Industries","frequency_plan":"EU_863_870_TTN","model":"The Things Indoor Gateway"},"online":true,"last_seen":"2025-01-12T11:53:48.872212Z"},"ganehag-nf46":{"network":"ttn","id":"ganehag-nf46","name":"Ganehag NF46","location":{"latitude":56.16454847486739,"longitude":14.865848422050478,"altitude":5},"country_code":"se","attributes":{"frequency_plan":"EU_863_870_TTN"},"online":false,"last_seen":"2025-01-06T11:43:45.275065Z"},"ganehag-ttig-1":{"network":"ttn","id":"ganehag-ttig-1","name":"Ganehag TTIG #1","description":"Indoor gateway","location":{"latitude":56.1740291071804,"longitude":14.8646919129169,"altitude":10},"country_code":"se","attributes":{"brand":"The Things Industries","frequency_plan":"EU_863_870_TTN","model":"The Things Indoor Gateway"},"online":false,"last_seen":"2025-01-05T14:15:37.240461Z"},"gdm-sundsvall-kontor-gw02":{"network":"ttn","id":"gdm-sundsvall-kontor-gw02","name":"DC2","location":{"latitude":62.41748065432971,"longitude":17.2340530173818,"altitude":0},"country_code":"se","attributes":{"brand":"The Things Industries","frequency_plan":"EU_863_870_TTN","model":"The Things Indoor Gateway"},"online":true,"last_seen":"2025-01-12T11:58:06.931323Z"},"gdm-sundsvall-kontor-gw03":{"network":"ttn","id":"gdm-sundsvall-kontor-gw03","name":"BF","location":{"latitude":62.38844260005564,"longitude":17.30039517110195,"altitude":0},"country_code":"se","attributes":{"brand":"The Things Industries","frequency_plan":"EU_863_870_TTN","model":"The Things Indoor Gateway"},"online":true,"last_seen":"2025-01-12T11:58:29.302176Z"},"gdm-sundsvall-kontor-gw04":{"network":"ttn","id":"gdm-sundsvall-kontor-gw04","location":{"latitude":62.3884301686906,"longitude":17.3001918196678,"altitude":26},"country_code":"se","attributes":{"brand":"The Things Industries","frequency_plan":"EU_863_870_TTN","model":"The Things Indoor Gateway"},"online":true,"last_seen":"2025-01-12T11:58:33.155472Z"},"gdm-sundsvall-kontor-gw05":{"network":"ttn","id":"gdm-sundsvall-kontor-gw05","location":{"latitude":62.388318286172904,"longitude":17.300980389118198,"altitude":29},"country_code":"se","attributes":{"brand":"The Things Industries","frequency_plan":"EU_863_870_TTN","model":"The Things Indoor Gateway"},"online":true,"last_seen":"2025-01-12T11:57:29.159057Z"},"ggk-00005813d35e2d7d":{"network":"ttn","id":"ggk-00005813d35e2d7d","name":"GlasriketsGK","location":{"latitude":56.90273,"longitude":14.86435,"altitude":208},"country_code":"se","attributes":{"frequency_plan":"EU_863_870"},"online":true,"last_seen":"2025-01-12T12:00:05.365707Z"},"gw-p05":{"network":"ttn","id":"gw-p05","name":"Virtuosen - Sjöråen 13","location":{"latitude":59.3421976411108,"longitude":18.05893993259815,"altitude":28},"country_code":"se","attributes":{"brand":"Kerlink","frequency_plan":"EU_863_870_TTN"},"online":true,"last_seen":"2025-01-12T11:58:04.956959Z"},"gw-p06":{"network":"ttn","id":"gw-p06","name":"Virtuosen - Brandmästaren 10","location":{"latitude":59.33690374384158,"longitude":18.082075596248618,"altitude":28},"country_code":"se","attributes":{"brand":"Kerlink","frequency_plan":"EU_863_870_TTN"},"online":true,"last_seen":"2025-01-12T12:00:16.946842Z"},"gw-p07":{"network":"ttn","id":"gw-p07","name":"Virtuosen - Humlegårdsmästaren 4","location":{"latitude":59.339854990216494,"longitude":18.076020240587244,"altitude":28},"country_code":"se","attributes":{"brand":"Kerlink","frequency_plan":"EU_863_870_TTN"},"online":true,"last_seen":"2025-01-12T11:58:27.364111Z"},"gw-p08":{"network":"ttn","id":"gw-p08","name":"Virtuosen - Brännaren 8","location":{"latitude":59.3384729590382,"longitude":18.0842492578449,"altitude":28},"country_code":"se","attributes":{"brand":"Kerlink","frequency_plan":"EU_863_870_TTN"},"online":true,"last_seen":"2025-01-12T12:01:49.116955Z"},"henriksdalsberget":{"network":"ttn","id":"henriksdalsberget","name":"Henriksdalsbergets TTN-Gateway","description":"På en av stockholms högsta punkter...","location":{"latitude":59.309685,"longitude":18.112677,"altitude":74},"country_code":"se","attributes":{"brand":"Raspberry Pi based","frequency_plan":"EU_863_870_TTN"},"online":true,"last_seen":"2025-01-12T11:56:49.171077Z"},"hjalmarb-78-ttig":{"network":"ttn","id":"hjalmarb-78-ttig","location":{"latitude":59.86655608441768,"longitude":17.665704488754276,"altitude":30},"country_code":"se","attributes":{"brand":"The Things Industries","frequency_plan":"EU_863_870_TTN","model":"The Things Indoor Gateway"},"online":true,"last_seen":"2025-01-12T11:56:21.304051Z"},"hoberg2":{"network":"ttn","id":"hoberg2","name":"hoberg2","location":{"latitude":58.02936366,"longitude":12.78381851,"altitude":95},"country_code":"se","attributes":{"brand":"Dragino","frequency_plan":"EU_863_870_TTN"},"online":true,"last_seen":"2025-01-12T11:57:11.599947Z"},"int-gateway":{"network":"ttn","id":"int-gateway","name":"Int Gateway","location":{"latitude":60.34693007975573,"longitude":15.748054766779564,"altitude":0},"country_code":"se","attributes":{"frequency_plan":"EU_863_870_TTN"},"online":false,"last_seen":"2024-12-31T17:37:55.136873Z"},"kaevlinge-city-one":{"network":"ttn","id":"kaevlinge-city-one","name":"kaevlinge-city-one","location":{"latitude":55.7889176,"longitude":13.0960483,"altitude":20},"country_code":"se","attributes":{"frequency_plan":"EU_863_870"},"online":true,"last_seen":"2025-01-12T11:58:44.944793Z"},"lahalla-ttig":{"network":"ttn","id":"lahalla-ttig","location":{"latitude":58.3579778837414,"longitude":11.4579892158508,"altitude":35},"country_code":"se","attributes":{"brand":"The Things Industries","frequency_plan":"EU_863_870_TTN","model":"The Things Indoor Gateway"},"online":true,"last_seen":"2025-01-12T11:52:19.142991Z"},"loragatewaylundsberg":{"network":"ttn","id":"loragatewaylundsberg","name":"LoRaGateway Lundsberg","location":{"latitude":59.5013217140869,"longitude":14.1705393791199,"altitude":120},"country_code":"se","attributes":{"brand":"Dragino","frequency_plan":"EU_863_870"},"online":true,"last_seen":"2025-01-12T11:54:15.241583Z"},"loragw-asa-01":{"network":"ttn","id":"loragw-asa-01","name":"loragw-asa-01","location":{"latitude":58.02669711889089,"longitude":13.565838038921358,"altitude":0},"country_code":"se","attributes":{"brand":"MultiTech","frequency_plan":"EU_863_870_TTN"},"online":true,"last_seen":"2025-01-12T11:54:04.975882Z"},"loragw-fal-01":{"network":"ttn","id":"loragw-fal-01","name":"loragw-fal-01","location":{"latitude":58.1847434838598,"longitude":13.553346991539,"altitude":0},"country_code":"se","attributes":{"brand":"MultiTech","frequency_plan":"EU_863_870_TTN"},"online":true,"last_seen":"2025-01-12T12:01:48.87349Z"},"loragw-fal-02":{"network":"ttn","id":"loragw-fal-02","name":"loragw-fal-02","location":{"latitude":58.166611,"longitude":13.566493,"altitude":0},"country_code":"se","attributes":{"brand":"MultiTech","frequency_plan":"EU_863_870_TTN"},"online":true,"last_seen":"2025-01-12T11:53:47.169617Z"},"loragw-fal-03":{"network":"ttn","id":"loragw-fal-03","name":"loragw-fal-03","location":{"latitude":58.1583,"longitude":13.538032,"altitude":0},"country_code":"se","attributes":{"brand":"MultiTech","frequency_plan":"EU_863_870_TTN"},"online":true,"last_seen":"2025-01-12T11:52:25.169077Z"},"loragw-flo-01":{"network":"ttn","id":"loragw-flo-01","name":"loragw-flo-01","location":{"latitude":58.13280009165473,"longitude":13.331826031208038,"altitude":0},"country_code":"se","attributes":{"brand":"MultiTech","frequency_plan":"EU_863_870_TTN"},"online":true,"last_seen":"2025-01-12T11:58:16.987144Z"},"loragw-ste-01":{"network":"ttn","id":"loragw-ste-01","name":"loragw-ste-01","location":{"latitude":58.266057925752854,"longitude":13.717337250709535,"altitude":0},"country_code":"se","attributes":{"brand":"MultiTech","frequency_plan":"EU_863_870_TTN"},"online":true,"last_seen":"2025-01-12T11:56:53.198409Z"},"loragw-test-01":{"network":"ttn","id":"loragw-test-01","name":"loragw-test-01","description":"beskrivning","location":{"latitude":58.0502206356308,"longitude":13.7150251865387,"altitude":0},"country_code":"se","attributes":{"brand":"MultiTech","frequency_plan":"EU_863_870_TTN"},"online":true,"last_seen":"2025-01-12T11:57:41.351103Z"},"loragw-tor-01":{"network":"ttn","id":"loragw-tor-01","name":"loragw-tor-01","location":{"latitude":58.209643,"longitude":13.605032,"altitude":0},"country_code":"se","attributes":{"brand":"MultiTech","frequency_plan":"EU_863_870_TTN"},"online":true,"last_seen":"2025-01-12T12:00:07.37679Z"},"md-gw1":{"network":"ttn","id":"md-gw1","location":{"latitude":56.11821670488566,"longitude":12.60783612728119,"altitude":30},"country_code":"se","attributes":{"frequency_plan":"EU_863_870_TTN"},"online":true,"last_seen":"2025-01-12T11:58:47.411064Z"},"mechatronicscubicle-gw1":{"network":"ttn","id":"mechatronicscubicle-gw1","name":"MechatronicsCubicle_GW1","description":"MechatronicsCubicle_GW1","location":{"latitude":61.730854923296114,"longitude":17.134122848510746,"altitude":65},"country_code":"se","attributes":{"frequency_plan":"EU_863_870_TTN"},"online":true,"last_seen":"2025-01-12T11:59:20.795867Z"},"mikrotik-gw-01":{"network":"ttn","id":"mikrotik-gw-01","name":"mikrotik-gw-01","location":{"latitude":56.16732306118974,"longitude":15.14770567417145,"altitude":0},"country_code":"se","attributes":{"frequency_plan":"EU_863_870_ROAMING_DRAFT"},"online":true,"last_seen":"2025-01-12T11:55:03.141037Z"},"mikrotik-gw-02":{"network":"ttn","id":"mikrotik-gw-02","name":"mikrotik-gw-02","location":{"latitude":56.362137,"longitude":14.544493,"altitude":5},"country_code":"se","attributes":{"frequency_plan":"EU_863_870_ROAMING_DRAFT"},"online":true,"last_seen":"2025-01-12T11:57:59.434754Z"},"my-lora-gw":{"network":"ttn","id":"my-lora-gw","name":"Barret Lora","location":{"latitude":57.652858,"longitude":12.14409,"altitude":35},"country_code":"se","attributes":{"brand":"The Things Industries","frequency_plan":"EU_863_870_TTN","model":"The Things Indoor Gateway"},"online":true,"last_seen":"2025-01-12T12:00:29.196752Z"},"nerdtech-lora-2":{"network":"ttn","id":"nerdtech-lora-2","name":"nerdtech-lora-2","location":{"latitude":56.012492867324546,"longitude":14.152780473232271,"altitude":4},"country_code":"se","attributes":{"frequency_plan":"EU_863_870_TTN"},"online":true,"last_seen":"2025-01-12T11:58:43.011507Z"},"nf-eui-c0ee40ffff29dddd":{"network":"ttn","id":"nf-eui-c0ee40ffff29dddd","name":"Laird Epishine","location":{"latitude":58.428796816386075,"longitude":15.596703955785719,"altitude":0},"country_code":"se","attributes":{"brand":"Laird","frequency_plan":"EU_863_870_TTN"},"online":true,"last_seen":"2025-01-12T11:52:56.929714Z"},"niftitech-ltap-12":{"network":"ttn","id":"niftitech-ltap-12","name":"niftitech-ltap-12 Astorp","location":{"latitude":56.171421,"longitude":12.920459,"altitude":44},"country_code":"se","attributes":{"frequency_plan":"EU_863_870_TTN"},"online":true,"last_seen":"2025-01-12T12:00:23.206985Z"},"niftitech-ltap-13":{"network":"ttn","id":"niftitech-ltap-13","name":"niftitech-ltap-13 / Fjälkinge","location":{"latitude":56.056995913475454,"longitude":14.282140731811525,"altitude":115},"country_code":"se","attributes":{"frequency_plan":"EU_863_870_TTN"},"online":true,"last_seen":"2025-01-12T11:56:31.277431Z"},"norsesundshemmet-gw":{"network":"ttn","id":"norsesundshemmet-gw","name":"norsesundshemmet-gw","location":{"latitude":57.870249320753445,"longitude":12.447998723474097,"altitude":80},"country_code":"se","attributes":{"brand":"Raspberry Pi based","frequency_plan":"EU_863_870_TTN"},"online":true,"last_seen":"2025-01-12T11:58:21.300132Z"},"olofm001eui-0080000000022d8d":{"network":"ttn","id":"olofm001eui-0080000000022d8d","name":"Olof_Multitech","location":{"latitude":59.320280914417985,"longitude":18.208000610649833,"altitude":60},"country_code":"se","attributes":{"brand":"MultiTech","frequency_plan":"EU_863_870"},"online":true,"last_seen":"2025-01-12T11:57:39.211759Z"},"pandos-lorixone":{"network":"ttn","id":"pandos-lorixone","name":"Pandos-LorixOne","location":{"latitude":55.602344015775685,"longitude":13.399589591594598,"altitude":40},"country_code":"se","attributes":{"frequency_plan":"EU_863_870_TTN"},"online":true,"last_seen":"2025-01-12T12:01:53.111051Z"},"pebry-gateway-num-one":{"network":"ttn","id":"pebry-gateway-num-one","name":"Markus 1","location":{"latitude":61.28406275993648,"longitude":13.924358562278561,"altitude":5},"country_code":"se","attributes":{"brand":"The Things Industries","frequency_plan":"EU_863_870_TTN","model":"The Things Indoor Gateway"},"online":true,"last_seen":"2025-01-12T11:55:15.30846Z"},"pebry-gateway-number-two":{"network":"ttn","id":"pebry-gateway-number-two","name":"Markus 2","location":{"latitude":61.28404835461437,"longitude":13.924146294593813,"altitude":4},"country_code":"se","attributes":{"brand":"The Things Industries","frequency_plan":"EU_863_870_TTN","model":"The Things Indoor Gateway"},"online":true,"last_seen":"2025-01-12T11:58:20.819398Z"},"persang01":{"network":"ttn","id":"persang01","name":"persang01","location":{"latitude":58.234,"longitude":11.533632,"altitude":5},"country_code":"se","attributes":{"brand":"Dragino","frequency_plan":"EU_863_870_TTN"},"online":true,"last_seen":"2025-01-12T12:00:19.181415Z"},"pygate1":{"network":"ttn","id":"pygate1","name":"bergshamra-ff-pygate1","location":{"latitude":59.381387053209,"longitude":18.0392307675606,"altitude":30},"country_code":"se","attributes":{"brand":"ESP based","frequency_plan":"EU_863_870_TTN"},"online":false,"last_seen":"2025-01-08T19:07:18.875321Z"},"pyramind-se-1":{"network":"ttn","id":"pyramind-se-1","name":"Mikrotik LoRaWAN GW","location":{"latitude":63.288232732881085,"longitude":14.339561462402346,"altitude":350},"country_code":"se","attributes":{"frequency_plan":"EU_863_870_TTN"},"online":true,"last_seen":"2025-01-12T11:59:47.346605Z"},"quandify-office":{"network":"ttn","id":"quandify-office","name":"Quandify Office Gateway","description":"Quandify Office LoRaWAN Gateway","location":{"latitude":59.3306365556808,"longitude":17.9845815896988,"altitude":16},"country_code":"se","attributes":{"brand":"Raspberry Pi based","frequency_plan":"EU_863_870"},"online":true,"last_seen":"2025-01-12T11:57:01.394249Z"},"raboda":{"network":"ttn","id":"raboda","location":{"latitude":59.391615089642045,"longitude":15.410272479057314,"altitude":0},"country_code":"se","attributes":{"brand":"The Things Industries","frequency_plan":"EU_863_870_TTN","model":"The Things Indoor Gateway"},"online":true,"last_seen":"2025-01-12T11:57:01.138454Z"},"rak7268v2-attic":{"network":"ttn","id":"rak7268v2-attic","name":"RAK7268v2 Gateway attic","location":{"latitude":59.0296325562403,"longitude":17.923778639403,"altitude":0},"country_code":"se","attributes":{"frequency_plan":"EU_863_870_TTN"},"online":true,"last_seen":"2025-01-12T11:55:51.194344Z"},"rg1xx296542":{"network":"ttn","id":"rg1xx296542","name":"LORA_POC","location":{"latitude":60.46642267671008,"longitude":15.461411476135256,"altitude":120},"country_code":"se","attributes":{"brand":"Laird","frequency_plan":"EU_863_870_TTN"},"online":false,"last_seen":"2025-01-12T08:18:43.036728Z"},"rokn-lab-gw":{"network":"ttn","id":"rokn-lab-gw","location":{"latitude":59.3069105,"longitude":18.20615165,"altitude":28},"country_code":"se","attributes":{"brand":"Raspberry Pi based","frequency_plan":"EU_863_870_TTN"},"online":true,"last_seen":"2025-01-12T12:00:16.870654Z"},"se-asas-g5":{"network":"ttn","id":"se-asas-g5","description":"Dragino LPS8","location":{"latitude":57.91986308822884,"longitude":12.498388383204144,"altitude":110},"country_code":"se","attributes":{"brand":"Dragino","frequency_plan":"EU_863_870_TTN"},"online":true,"last_seen":"2025-01-12T12:01:49.037059Z"},"se-sto-bbt04":{"network":"ttn","id":"se-sto-bbt04","name":"se-sto-bbt04","location":{"latitude":59.52188,"longitude":17.848204,"altitude":19},"country_code":"se","attributes":{"frequency_plan":"EU_863_870_TTN"},"online":true,"last_seen":"2025-01-12T11:54:24.961642Z"},"se-vrg-kg23-lora01":{"network":"ttn","id":"se-vrg-kg23-lora01","name":"se-vrg-kg23-lora01","location":{"latitude":58.0311125409711,"longitude":12.799228552769227,"altitude":40},"country_code":"se","attributes":{"frequency_plan":"EU_863_870_TTN"},"online":true,"last_seen":"2025-01-12T11:54:59.182925Z"},"sensative-test-us-2":{"network":"ttn","id":"sensative-test-us-2","name":"US-US915-gw","location":{"latitude":55.716145728378336,"longitude":13.224677145481111,"altitude":0},"country_code":"se","attributes":{"brand":"The Things Industries","frequency_plan":"US_902_928_FSB_2","model":"The Things Indoor Gateway"},"online":true,"last_seen":"2025-01-12T11:52:14.664719Z"},"skarpnack-segelflygsg-12":{"network":"ttn","id":"skarpnack-segelflygsg-12","name":"RAK831 Skarpnack Segelflygsg 12","location":{"latitude":59.26662348422035,"longitude":18.13099265098572,"altitude":32},"country_code":"se","attributes":{"brand":"Raspberry Pi based","frequency_plan":"EU_863_870_TTN"},"online":true,"last_seen":"2025-01-12T12:01:29.079106Z"},"slu-siljansfors2":{"network":"ttn","id":"slu-siljansfors2","name":"SLU-Siljansfors2","location":{"latitude":60.88123328793675,"longitude":14.383606016635897,"altitude":240},"country_code":"se","attributes":{"frequency_plan":"EU_863_870_TTN"},"online":true,"last_seen":"2025-01-12T11:59:51.024858Z"},"sluasa-1":{"network":"ttn","id":"sluasa-1","name":"SLU-Asa_Lorix1","location":{"latitude":57.16454054281944,"longitude":14.78253096342087,"altitude":180},"country_code":"se","attributes":{"frequency_plan":"EU_863_870_TTN"},"online":true,"last_seen":"2025-01-12T11:55:54.910701Z"},"smallthings-ttgw":{"network":"ttn","id":"smallthings-ttgw","location":{"latitude":55.6025141345431,"longitude":13.0797591922356,"altitude":0},"country_code":"se","attributes":{"brand":"The Things Industries","frequency_plan":"EU_863_870_TTN","model":"The Things Indoor Gateway"},"online":true,"last_seen":"2025-01-12T12:00:59.195137Z"},"smoofit-motala-gw2":{"network":"ttn","id":"smoofit-motala-gw2","location":{"latitude":58.53708340392695,"longitude":15.02597361803055,"altitude":8},"country_code":"se","attributes":{"brand":"The Things Industries","frequency_plan":"EU_863_870_TTN","model":"The Things Indoor Gateway"},"online":true,"last_seen":"2025-01-12T12:01:21.999528Z"},"spetby-skola":{"network":"ttn","id":"spetby-skola","location":{"latitude":59.21287342786147,"longitude":16.22163534164429,"altitude":55},"country_code":"se","attributes":{"brand":"The Things Industries","frequency_plan":"EU_863_870_TTN","model":"The Things Indoor Gateway"},"online":true,"last_seen":"2025-01-12T11:53:07.312694Z"},"stroid-gw1":{"network":"ttn","id":"stroid-gw1","name":"stroid-gw1","location":{"latitude":55.50579024818791,"longitude":13.243970597698876,"altitude":49},"country_code":"se","attributes":{"brand":"Dragino","frequency_plan":"EU_863_870_TTN"},"online":true,"last_seen":"2025-01-12T12:00:31.158593Z"},"tbg-tts-gw-2":{"network":"ttn","id":"tbg-tts-gw-2","name":"tbg-tts-gw-2","location":{"latitude":59.4819605105524,"longitude":17.9250499606133,"altitude":17},"country_code":"se","attributes":{"brand":"Raspberry Pi based","frequency_plan":"EU_863_870_TTN"},"online":true,"last_seen":"2025-01-12T12:00:53.049072Z"},"tcab-gateway-02":{"network":"ttn","id":"tcab-gateway-02","name":"Tedenljung Consulting AB","description":"The Things Indoor Gateway","location":{"latitude":59.88993968614086,"longitude":13.706023672791073,"altitude":186},"country_code":"se","attributes":{"brand":"The Things Industries","frequency_plan":"EU_863_870_TTN","model":"The Things Indoor Gateway"},"online":true,"last_seen":"2025-01-12T11:54:18.883208Z"},"tfabgby01":{"network":"ttn","id":"tfabgby01","location":{"latitude":57.885123378194606,"longitude":16.414861679077152,"altitude":20},"country_code":"se","attributes":{"frequency_plan":"EU_863_870_ROAMING_DRAFT"},"online":true,"last_seen":"2025-01-12T11:58:35.339621Z"},"thuje-gw-4":{"network":"ttn","id":"thuje-gw-4","location":{"latitude":57.6629688275487,"longitude":12.0041137933731,"altitude":20},"country_code":"se","attributes":{"brand":"Raspberry Pi based","frequency_plan":"EU_863_870"},"online":true,"last_seen":"2025-01-12T11:54:53.289181Z"},"timella-gw-3":{"network":"ttn","id":"timella-gw-3","name":"Tim Ella Gateway 3","location":{"latitude":55.82067001032916,"longitude":13.089264720620124,"altitude":0},"country_code":"se","attributes":{"frequency_plan":"EU_863_870_TTN"},"online":true,"last_seen":"2025-01-12T11:57:07.449134Z"},"ts-lorixone-2":{"network":"ttn","id":"ts-lorixone-2","name":"ts-lorixone-2 / Sjobo","location":{"latitude":55.6321,"longitude":13.7027,"altitude":46},"country_code":"se","attributes":{"frequency_plan":"EU_863_870"},"online":true,"last_seen":"2025-01-12T11:57:16.99796Z"},"ts-lorixone-3":{"network":"ttn","id":"ts-lorixone-3","name":"ts-lorixone-3 / Vanstad","description":"ts-lorixone-3 / Vanstad","location":{"latitude":55.618172,"longitude":13.862673,"altitude":36},"country_code":"se","attributes":{"frequency_plan":"EU_863_870"},"online":true,"last_seen":"2025-01-12T11:57:07.44524Z"},"ts-lorixone-5":{"network":"ttn","id":"ts-lorixone-5","name":"ts-lorixone-5 / Simrishamn","location":{"latitude":55.54745,"longitude":14.33673,"altitude":36},"country_code":"se","attributes":{"frequency_plan":"EU_863_870"},"online":true,"last_seen":"2025-01-12T11:58:35.359801Z"},"ts-lorixone-7":{"network":"ttn","id":"ts-lorixone-7","name":"ts-lorixone-7 / Kladdarp","location":{"latitude":55.54123455148258,"longitude":13.588542938232422,"altitude":174},"country_code":"se","attributes":{"frequency_plan":"EU_863_870"},"online":true,"last_seen":"2025-01-12T11:58:51.187827Z"},"ts-lorixone-8":{"network":"ttn","id":"ts-lorixone-8","name":"ts-lorixone-8 / Borrby","location":{"latitude":55.46247,"longitude":14.18507,"altitude":36},"country_code":"se","attributes":{"frequency_plan":"EU_863_870_TTN"},"online":true,"last_seen":"2025-01-12T11:54:49.024232Z"},"ts-mikrotik-1":{"network":"ttn","id":"ts-mikrotik-1","name":"ts-mikrotik-1 / SK7EM","location":{"latitude":55.57356776155259,"longitude":13.523325242644086,"altitude":180},"country_code":"se","attributes":{"frequency_plan":"EU_863_870"},"online":true,"last_seen":"2025-01-12T11:55:42.800102Z"},"ttig-by-sidensjoe":{"network":"ttn","id":"ttig-by-sidensjoe","description":"The Things Indoor Gateway","location":{"latitude":63.306004140873746,"longitude":18.33800554275513,"altitude":100},"country_code":"se","attributes":{"brand":"The Things Industries","frequency_plan":"EU_863_870_TTN","model":"The Things Indoor Gateway"},"online":true,"last_seen":"2025-01-12T12:01:51.05506Z"},"ttig-vbg":{"network":"ttn","id":"ttig-vbg","name":"TTIG VBG","description":"The Things Indoor Gateway in VBG","location":{"latitude":57.1986675646139,"longitude":12.186563014984133,"altitude":1},"country_code":"se","attributes":{"brand":"The Things Industries","frequency_plan":"EU_863_870_TTN","model":"The Things Indoor Gateway"},"online":true,"last_seen":"2025-01-12T11:57:13.238868Z"},"ttn-myrtel-hbg":{"network":"ttn","id":"ttn-myrtel-hbg","name":"Myrtel main lorawan-GW","location":{"latitude":56.0637467714805,"longitude":12.6813447475433,"altitude":19},"country_code":"se","attributes":{"frequency_plan":"EU_863_870_TTN"},"online":true,"last_seen":"2025-01-12T12:00:43.198201Z"},"ttn-sjohaga-1":{"network":"ttn","id":"ttn-sjohaga-1","name":"Sjohaga GW 01","description":"Indoor TTN GW v3","location":{"latitude":59.890151775709704,"longitude":18.893564488388265,"altitude":16},"country_code":"se","attributes":{"brand":"The Things Industries","frequency_plan":"EU_863_870_TTN","model":"The Things Indoor Gateway"},"online":true,"last_seen":"2025-01-12T11:57:27.153138Z"},"ttn-spotwise-gw01":{"network":"ttn","id":"ttn-spotwise-gw01","name":"Knapehall, Askim","description":"Multi-channel DIY gateway / Raspberry Pi with RAK 831 / Glass fiber antenna, 6dBm gain","location":{"latitude":57.6351851967879,"longitude":11.9518572172635,"altitude":50},"country_code":"se","attributes":{"brand":"Raspberry Pi based","frequency_plan":"EU_863_870_TTN"},"online":true,"last_seen":"2025-01-12T12:01:01.194964Z"},"ttnind001":{"network":"ttn","id":"ttnind001","location":{"latitude":59.18561181499134,"longitude":17.670427322846084,"altitude":14},"country_code":"se","attributes":{"brand":"The Things Industries","frequency_plan":"EU_863_870","model":"The Things Indoor Gateway"},"online":true,"last_seen":"2025-01-12T12:01:51.006052Z"},"tunnerstavagen-12":{"network":"ttn","id":"tunnerstavagen-12","name":"Tunnerstavägen-12","description":"Gateway located in a residential house on the island of Visingsö","location":{"latitude":58.04642808208849,"longitude":14.335868060588838,"altitude":0},"country_code":"se","attributes":{"frequency_plan":"EU_863_870_TTN"},"online":true,"last_seen":"2025-01-12T12:01:27.493936Z"},"umea-avion":{"network":"ttn","id":"umea-avion","location":{"latitude":63.8076900062792,"longitude":20.255141594633223,"altitude":10},"country_code":"se","attributes":{"brand":"The Things Industries","frequency_plan":"EU_863_870_TTN","model":"The Things Indoor Gateway"},"online":true,"last_seen":"2025-01-12T11:57:17.259201Z"},"virtual-gateway1":{"network":"ttn","id":"virtual-gateway1","name":"virtual gateway 1","description":"Docker Mbed Simulator","location":{"latitude":60.48856402,"longitude":15.3882648,"altitude":160},"country_code":"se","attributes":{"frequency_plan":"EU_863_870_TTN"},"online":true,"last_seen":"2025-01-12T11:53:25.354796Z"},"wasptown-002":{"network":"ttn","id":"wasptown-002","location":{"latitude":56.815139075771974,"longitude":12.73592233657837,"altitude":42},"country_code":"se","attributes":{"frequency_plan":"EU_863_870_TTN"},"online":true,"last_seen":"2025-01-12T11:58:19.304023Z"},"wexnet-ttn-1":{"network":"ttn","id":"wexnet-ttn-1","name":"Wexnet-TTN-1","location":{"latitude":56.868844143858276,"longitude":14.838050007820131,"altitude":220},"country_code":"se","attributes":{"brand":"MultiTech","frequency_plan":"EU_863_870_TTN"},"online":true,"last_seen":"2025-01-12T11:59:23.466153Z"},"wistory-gateway-1":{"network":"ttn","id":"wistory-gateway-1","name":"Wistory LoRa gateway","location":{"latitude":55.88728646318682,"longitude":13.566457629203798,"altitude":61},"country_code":"se","attributes":{"frequency_plan":"EU_863_870_TTN"},"online":true,"last_seen":"2025-01-12T11:59:03.405734Z"},"wlrrtes-106":{"network":"ttn","id":"wlrrtes-106","name":"Femto Lite gateway","location":{"latitude":58.405186,"longitude":11.955478,"altitude":200},"country_code":"se","attributes":{"frequency_plan":"EU_863_870_TTN"},"online":true,"last_seen":"2025-01-12T11:53:31.121249Z"},"wom-lora-gw":{"network":"ttn","id":"wom-lora-gw","location":{"latitude":59.3373753486278,"longitude":16.64154320955277,"altitude":88},"country_code":"se","attributes":{"brand":"Raspberry Pi based","frequency_plan":"EU_863_870_TTN"},"online":false,"last_seen":"2025-01-12T12:01:47.451591Z"},"xrf92mssizeum3cxb9zy-qwp3wo-ha-jjs8t":{"network":"ttn","id":"xrf92mssizeum3cxb9zy-qwp3wo-ha-jjs8t","name":"Mälaröarna-Färingsö","location":{"latitude":59.415042,"longitude":17.665415,"altitude":10},"country_code":"se","attributes":{"frequency_plan":"EU_863_870_TTN"},"online":true,"last_seen":"2025-01-12T11:58:17.141317Z"}}